tle/Orbitron/Output/first.txt

Satellite passes / Orbitron 3.71 / www.stoff.pl

Location      : Stockholm (18.0691° E, 59.3185° N)
Time zone     : UTC
Search period : 2014-08-25 15:02:38 - 1 days
                2014-08-26 15:02:38
Conditions    : Maximum sun elevation = None
                Minimum sat elevation = 10 deg
                Illumination NOT required

Time                Satellite              Azm  Elv  Mag Range S.Azm S.Elv
--------------------------------------------------------------------------
2014-08-25 15:42:52 ISS                  240.4 10.0  2.1  1496 261.0  17.7
2014-08-25 15:45:06 ISS                  198.5 16.6  1.3  1153 261.5  17.4
2014-08-25 15:47:19 ISS                  157.0 10.0  1.7  1495 262.0  17.1

2014-08-26 11:43:14 ISS                  181.0 10.0  3.1  1490 197.3  40.0
2014-08-26 11:44:45 ISS                  153.9 12.6  2.6  1341 197.8  39.9
2014-08-26 11:46:17 ISS                  126.6 10.0  2.6  1493 198.3  39.9

2014-08-26 13:18:02 ISS                  225.3 10.0  2.8  1493 225.5  33.7
2014-08-26 13:20:40 ISS                  173.4 21.4  1.5   982 226.2  33.4
2014-08-26 13:23:17 ISS                  121.9 10.1  2.1  1492 226.9  33.2

2014-08-26 14:54:14 ISS                  240.7 10.1  2.3  1493 249.8  23.3
2014-08-26 14:56:41 ISS                  193.7 19.0  1.3  1060 250.4  23.1
2014-08-26 14:59:09 ISS                  146.2 10.0  1.8  1495 251.0  22.8

